{"ipAddress":"172.26.105.81","protocol":"HTTP","macAddress":"","channelID":1,"activePostCount":1,"eventType":"captureResult","eventState":"active","eventDescription":"captureLibResult","uuid":"D65961D3-A381-3940-B488-D0A28498EBD3","dateTime":"2021-04-06T15:53:14+08:00","captureLibResult":[{"errorCode":1,"errorMsg":"ok","traceIdx":1,"traceUuid":"D65961D3-A381-3940-B488-D0A28498EBD3","targetAttrs":{"cameraIndexCode":"00520020001310002939","deviceName":"POL2_530804HGG_P02A_channel_2","linkFaceBodyId":"","faceTime":"2021-04-06T15:53:14+08:00","rect":"{\"x\":0.858000,\"y\":0.207000,\"width\":0.077000,\"height\":0.137000}","bkgUrl":"http://172.27.199.225:6113/pic?=d62i0c7e*14ci568-751e0=t1i7m*dp=*2pdi=*1s7i6341i9d7=*bb3530c74-1504f64-197637-96z9c7s=9193d3"},"faces":[{"faceId":0,"faceRect":{"x":0.305556,"y":0.430556,"width":0.340278,"height":0.347222},"facePose":{"pitch":-4.981580,"roll":1.820710,"yaw":27.002399},"smile":{"confidence":96,"value":"no"},"age":{"range":5,"value":69,"ageGroup":"old"},"gender":{"confidence":96,"value":"male"},"glass":{"confidence":96,"value":"yes"},"modelData":"SElLREZSNDMwVFgAAAAAAOX9LhAb1wnJ5ewJEeI1zSDX6QMMPkKAC+/k5Qf/Hv7uUyEU9xLM82EHw+f6yOctcQOaB7ga6jkwI/Mvy97q9fjx2SkqE6wTVSI3EwDQ+i8GYOeLA9rm4e0b3MP169AAxundJj4Y4g4sEJYdC/j2PDJAEAAWNOU+NiRLC+juqQ/A+6K4yvb77Q4uBxnEEQgIDyUC2SfHAdULJTsFC9DfALg1TVgTfwgTxUjRE+jNHJrb7yPr4yTCF/094ttOShHJ0to5+MHnDBw++1v+AadjvPsE2EHzzeQxI/YB+fu7BC3+Q7vj8vo55SUZ0TFv1Nr84g/D9RW2ESYqEepUCPv3/OO+RQj+SfPSHvM7XBpTFtUAZy8s7hok2scu5vLP2pHnExk3+w47JPC/vEoHBeABzEw2ECvY6v8A9fEBJRdtMP4TFhk60QQOA3O8Jx0E9t4iCOH/ERHg5F1GMANOJgsYEdkz890486vx9OXh5fYiKMv/tBIsBMM71TsrNOHb9SXMzTI2/DEgWPnk3gbi8Nlj7hjx5YUE/hh1BcT+FdM9HOkB9+QjGPbWDzEFHgfzrs7r+ijKy/6k1NvCFtGmAAwgO4Au6f5aHc0mCif+G+D/1937EOgEPBNX6jgPHxpR3RgMvQgEID7HvVPIGPjx1z0cCCj1+Ey/I4saFN/P5jDxP+DpOACqeA8A","URL":"https://172.26.105.82:6121/pic?did=01008292646988382FA8709BB4CB99D907F6A7F749D450000007760000000000&bid=7760&pid=482280640&ptime=1617724398&plen=7170","faceScore":{"featureConfidence":-56375632,"pupillaryDistance":16.441090,"pitchAngle":-4.981578,"yawAngle":27.002392,"faceRect":0,"colorConfidence":1,"grayScale":95,"grayMean":107.592140,"grayVariance":26.905960,"clearityScore":0.150000,"rollAngle":1.820706,"poseConfidence":0,"frontalScore":0,"visibleScore":0.100000,"totalScore":0.323718}}],"image":"http://172.27.199.225:6113/pic?=d0ei0c7i514c*518-761i0m*ep0t3d3=*2pdi=*1s7i5361i9d7=*bb3530c74-1504f=4-196937-76s9c76z1163d="}]}
{"ipAddress":"172.26.105.81","protocol":"HTTP","macAddress":"","channelID":1,"activePostCount":1,"eventType":"captureResult","eventState":"active","eventDescription":"captureLibResult","uuid":"5790C688-9B5E-3948-ACAB-74A981B39E8C","dateTime":"2021-04-06T15:53:14+08:00","captureLibResult":[{"errorCode":1,"errorMsg":"ok","traceIdx":1,"traceUuid":"5790C688-9B5E-3948-ACAB-74A981B39E8C","targetAttrs":{"cameraIndexCode":"00520020001310002939","deviceName":"POL2_530804HGG_P02A_channel_2","linkFaceBodyId":"","faceTime":"2021-04-06T15:53:14+08:00","rect":"{\"x\":0.816000,\"y\":0.533000,\"width\":0.089000,\"height\":0.151000}","bkgUrl":"http://172.27.199.225:6113/pic?=d42i0c7e*14ci568-751e0=t1i9m*dp=*2pdi=*1s7i6341i9d7=*bb3530c74-1504f64-197637-96z9c7s=9143d3"},"faces":[{"faceId":0,"faceRect":{"x":0.393750,"y":0.456250,"width":0.368750,"height":0.362500},"facePose":{"pitch":-5.020270,"roll":0.226184,"yaw":3},"smile":{"confidence":96,"value":"no"},"age":{"range":5,"value":10,"ageGroup":"child"},"gender":{"confidence":96,"value":"male"},"glass":{"confidence":96,"value":"no"},"modelData":"SElLREZSNDMwVFgAAAAAAOkT8jAx1eDZFcXOvNXsP89FIvsTGeTh+h1LFvSo+Qw9JT4bwQkPBoDrESwf9vALFvDTEjkYGP296zHcL7goMR1VFyMmzQUEGbe3/hYuCtAr2ugT69IS9SLNL+Ue3fzRyscFIjI7zyIg0+wFEd80GB0rPgDaFv+z5VN39Ef/M9+/HQkJ8uGdE7oIEuLl3tPs/AwM2yMex0P9BRXQAt+5AA4B9BKkYCs0DQ8PEMDrINkqIf7c9jf4HQE9ytn7JsHy+eAZ2wbvf1XQJcXs+XDqBkYAy/Ajm0ry5M/s3Rz1sRXuvtbWLAYGLMv7UDg0wemh8uPtrhGy2fV/EtUQANst/4jrRcMDIfUx8hnDUynkJWEm2esgCOH8pMJG5tMKoNczFB0MPFoJ5vTX9uny8A3uTLst2i7+OuQX+VPu4C7yb+KoJhf7+zQAJd2dm/LYAOz9B9y4AxUi/fwY686hGObd9QYf6ScCxvHFv+TasQbzHsEeAw1eCPs7Ie262zQ0CAIhO/DXPLwm0x8DFeEPNf+tKA8aRzz2/QLa9PMRB/AsAgUD/ET2IBf7/Kn9vxk//q4ppI7dKQUGMbXXMw+XzBcPED/k/TYZ2QDqK1sgQDTxajupyFbS2RXe+9seDujX6TNGS0sOPgoWBgkrO+rdo1bQ4SjsIizrF+wBDusWACnS3Fj3OADdfA8A","URL":"https://172.26.105.82:6121/pic?did=01008292646988382FA8709BB4CB99D907F6A7F749D450000007760000000000&bid=7760&pid=482527424&ptime=1617724399&plen=10119","faceScore":{"featureConfidence":-52181328,"pupillaryDistance":23.365707,"pitchAngle":-5.020271,"yawAngle":3,"faceRect":0,"colorConfidence":1,"grayScale":140,"grayMean":100.027184,"grayVariance":41.789577,"clearityScore":0.500000,"rollAngle":0.226184,"poseConfidence":0,"frontalScore":0,"visibleScore":1,"totalScore":0.780357}}],"image":"http://172.27.199.225:6113/pic?0dd751i31-e*5c9156173019--4cf4551b47703i3b3*=7d9*16d5i*s1d=i0p2*=5i3t=pe0m697-876sc416z0c0i=5="}]}
{"ipAddress":"172.26.105.81","protocol":"HTTP","macAddress":"","channelID":1,"activePostCount":1,"eventType":"captureResult","eventState":"active","eventDescription":"captureLibResult","uuid":"BFAD60BC-6790-7042-A7F5-2822D2B04219","dateTime":"2021-04-06T15:53:15+08:00","captureLibResult":[{"errorCode":1,"errorMsg":"ok","traceIdx":1,"traceUuid":"BFAD60BC-6790-7042-A7F5-2822D2B04219","targetAttrs":{"cameraIndexCode":"00520020001310002939","deviceName":"POL2_530804HGG_P02A_channel_2","linkFaceBodyId":"","faceTime":"2021-04-06T15:53:15+08:00","rect":"{\"x\":0.491000,\"y\":0.592000,\"width\":0.187000,\"height\":0.322000}","bkgUrl":"http://172.27.199.225:6113/pic?=d22i0c6e*14ci568-751e0=t1i3m*dp=*3pdi=*1s7i6341i9d7=*bb3530c74-1504f64-197637-96z9c7s=0133d3"},"faces":[{"faceId":0,"faceRect":{"x":0.338068,"y":0.419643,"width":0.329545,"height":0.348214},"facePose":{"pitch":-0.034403,"roll":1.935290,"yaw":-3},"smile":{"confidence":96,"value":"no"},"age":{"range":5,"value":54,"ageGroup":"middle"},"gender":{"confidence":96,"value":"male"},"glass":{"confidence":96,"value":"yes"},"modelData":"SElLREZSNDMwVFgAAAAAABz5BvHt6jEB8zD3gD0/q+0KyT9uEgngMOsu0xfGEc8ZIxqoP/rpCh/hz7/77Q8UHgpUOMsH2TC///f67cm155bVMCXa8urNFCgr2s/1EQPF+y4bG0gl0c71ruu8t/TI4iwX7u3k0Avw9yICX8IxZCY2KgD6+TPG9fwn5d/n7gbw60es5x0R4C7318nFBkHjN/YeAyED1aoH9ksDzec+AML2PtPR5wO4Ctj79uEFFPP6NRXp3EzZAwLlDgrp1gIqAeNguzQeJfgkL1MvMazRxeU6DiAh7CnhGkn93ek2m9/O0edk++EtFiv36TCwHscIEO24xjQAtMHfYLTucUUg9RX1ETYJIhwGE/Jg3cQAwKVWU0Z4JRFmO6oCEOtRDvT2dOrdLZQtA/AE+cnvHxMw2kiJMuP6oxct8jkRqBtaBBYJq+rz8A4F+Dy08T3YA94aCZrz7/ew4wFKKOkf+fHoCBW4FSMdFObk+g4sC38S87HWATz9xCSpBu8bDr4hJDEN5fIHESoIKdvlukrLCt07MQO4p9fSBgIUJ9UQ//vyt8zb+gUDAxXxPhkaCxFLBfUP6VPnPTLh3fxN6Ui+wjLbNNS64Acj4hTbEgDyI60Hx+KnHR0c9/QsHCQLGSEX1CAgEyD1xDQFCjnHDQbcLDUQ2dze5NqpH78fFQfqLQvgJLO4OADfTAEA","URL":"https://172.26.105.82:6121/pic?did=01008292646988382FA8709BB4CB99D907F6A7F749D450000007760000000000&bid=7760&pid=482004160&ptime=1617724398&plen=38855","faceScore":{"featureConfidence":-52181328,"pupillaryDistance":51.748463,"pitchAngle":-0.034403,"yawAngle":-3,"faceRect":0,"colorConfidence":1,"grayScale":172,"grayMean":165.970032,"grayVariance":53.469730,"clearityScore":0.550000,"rollAngle":1.935295,"poseConfidence":0,"frontalScore":0,"visibleScore":0.500000,"totalScore":0.397156}}],"image":"http://172.27.199.225:6113/pic?7dd713i31-e*5c9156173019--4cf4551b47703i3b3*=7d9*16d5i*s1d=i0p2*=7i3t=pe0m697-876sc416z8c0i=9="}]}
{"ipAddress":"172.26.105.81","protocol":"HTTP","macAddress":"","channelID":1,"activePostCount":1,"eventType":"captureResult","eventState":"active","eventDescription":"captureLibResult","uuid":"91EA3113-F603-A04E-BFAD-2C1FC29AE7B6","dateTime":"2021-04-06T15:53:17+08:00","captureLibResult":[{"errorCode":1,"errorMsg":"ok","traceIdx":1,"traceUuid":"91EA3113-F603-A04E-BFAD-2C1FC29AE7B6","targetAttrs":{"cameraIndexCode":"00520020001310002939","deviceName":"POL2_530804HGG_P02A_channel_2","linkFaceBodyId":"","faceTime":"2021-04-06T15:53:17+08:00","rect":"{\"x\":0.791000,\"y\":0.651000,\"width\":0.106000,\"height\":0.192000}","bkgUrl":"http://172.27.199.225:6113/pic?=d82i0c8e*14ci568-751e0=t1i5m*dp=*3pdi=*1s7i6341i9d7=*bb3530c74-1504f64-197637-96z9c7s=6103d5"},"faces":[{"faceId":0,"faceRect":{"x":0.333333,"y":0.471154,"width":0.348958,"height":0.322115},"facePose":{"pitch":-5.013110,"roll":18.926201,"yaw":-58.002201},"smile":{"confidence":96,"value":"no"},"age":{"range":5,"value":10,"ageGroup":"child"},"gender":{"confidence":96,"value":"male"},"glass":{"confidence":96,"value":"no"},"modelData":"SElLREZSNDMwVFgAAAAAAOr68jMdk8cF98f0/t8J6uIu6QEU3dD81R5aHQSLxCIOFSkx0fIRqpob9wct7tgYAkXtNyJmQP68FE8CIcNLCRIjHxL5CCL/G9gDEQVCBAw+EuUT0uMi0OPvCNJC9NkIu6wD2DRB+iAUydUFIdIi3S7fFAAGHt+3HTdpRu3xJ9P6EUvV8+bZJPrwKvfm/AlbFBgnnxzxICsXGCAoE6vfACFQuAvbRujf/elb//PbJ+wYHxAOChdM0f9p2OEjZMCzHOQnFTTfdyzmAef7IAETASzIw7H9nwzgDwv62invl/AM3+r4+gP8Aff0HvJQw+LxItXegPyqvv1/4AbYQbFiHdgVLIDXJ8ra9uDSDfEk90/q3jT1Gv0OpZASwv4g7scTCC3WOETG7/73Mh/jUiUaHqtD70700sk0Bl3OIBQDeNb/KGPu0AwaHvvDqsMZ1frbKO/ACS768RsyI/zaL9rlBQUC6gHryQSg/vrcudfSGMTj9RtsKAsfNggh5NgxChMjTOYBMrYZxfD46uYx9RXX7wv8SAPow+4TBcjnEyg27g/X1gqz5QobLcgiqr1M1KUltL/TOAMMde+vR0mpHyjwNTUSAA0SEgK2ID0WxwFF+QzUsz7X3kLS7+QV8QD+/wHeRx/5FBwULM8YRizVpCf6/j/GGwjnJdY8/OEE1ij141v6OAAeqQkA","URL":"https://172.26.105.82:6121/pic?did=01008292646988382FA8709BB4CB99D907F6A7F749D450000007760000000000&bid=7760&pid=483631296&ptime=1617724400&plen=15963","faceScore":{"featureConfidence":-56375632,"pupillaryDistance":13.949758,"pitchAngle":-5.013107,"yawAngle":-58.002193,"faceRect":0,"colorConfidence":1,"grayScale":124,"grayMean":115.162376,"grayVariance":32.808540,"clearityScore":0.400000,"rollAngle":18.926189,"poseConfidence":0,"frontalScore":0,"visibleScore":0.800000,"totalScore":0.237907}}],"image":"http://172.27.199.225:6113/pic?=d9=i455z68acs678-796m0ep=t7i8d*=*3pdi=*1s7i9321i9d7=*bb3530c74-1504f15-191537-65i960*e8493d1"}]}
{"ipAddress":"172.26.105.81","protocol":"HTTP","macAddress":"","channelID":1,"activePostCount":1,"eventType":"captureResult","eventState":"active","eventDescription":"captureLibResult","uuid":"08284992-854F-E348-8082-54F8DA419578","dateTime":"2021-04-06T15:53:17+08:00","captureLibResult":[{"errorCode":1,"errorMsg":"ok","traceIdx":1,"traceUuid":"08284992-854F-E348-8082-54F8DA419578","targetAttrs":{"cameraIndexCode":"00520020001310002938","deviceName":"POL2_530804HGG_F02A_channel_1","linkFaceBodyId":"9A61C75D1C174b4f9EE2BAF90ECB428B","faceTime":"2021-04-06T15:53:17+08:00","rect":"{\"x\":0.293750,\"y\":0.690298,\"width\":0.023958,\"height\":0.041045}","bkgUrl":"http://172.27.199.225:6113/pic?=d13i0c8e*14ci568-751e0=t1i6m*dp=*3pdi=*1s7i6341i9d7=*bb3530c74-1504f64-197637-96z9c7s=5103d9"},"faces":[{"faceId":0,"faceRect":{"x":0.246875,"y":0.278125,"width":0.640625,"height":0.618750},"facePose":{"pitch":-5.005430,"roll":1.302810,"yaw":-1.000260},"smile":{"confidence":96,"value":"no"},"age":{"range":5,"value":34,"ageGroup":"young"},"gender":{"confidence":96,"value":"male"},"glass":{"confidence":96,"value":"sunglasses"},"modelData":"SElLREZSNDMwVFgAAAAAACv24Q0V/lXMA0sUivk/0Njq6gNEHwzP9AYYAvPlzuY/ChAlaCEYB0Sn9PgC8As9AgMYMbkCEg82CCAL/r2/3+W0P/rm9yK/1x8msP4MIxr/z+8NIR8zzwHpD6yuB8bTBDIb0HXE9QX5/Crk//ADCRtLHQDh2W7MHvnzG8nCEOT04/WDuNPSEEUT3Nz32R3jI8u0CCb9s6jk3jQ317shAPH8C+Kr3/3VAyTvAp/3/fk7LfavyGYX8fjXDjrClfvzEwZUzC1eKNYUEhwU7K4W4ekEAl0SGxPuDiL+5gUx1Mqq7h8pBsvF10ge/hgDwggc/8jZrSzJw8S4arnXGBfdMloE/B8UUQcw+RtDxs1OzLFPUCQ5URQfMo05L+ZQD8zwTf73FtT/UQ735eb3ERMbB0DGCuP6Dw8duBvnvdUhRwELx8HSB/ERHj7g6xn/AgIx7vjoEfHf6icUX/M80eIcAAvTEx8A//oM8AVE9U/dy5rvGzb7+/q6RODiH8iyMWDmzzzhE0Lv/chX21UtItItSx4FyhibHdtIW6ciDwbr3NMMMw//JQHmx+syFxrq7Az5KQ/mcR/gxigrDDCNuAocRsvA8vpI8frZMvnr2P0P2hrL+GBE4+EKLS0PTCM/+xATKdQGDC/W7X/w5RH54Dv91O/gx/rFOgUhFcjcPrmx4fDLOAA6TwEA","URL":"https://172.26.105.82:6121/pic?did=01008292646988382FA8709BB4CB99D907F6A7F749D450000007760000000000&bid=7760&pid=483620544&ptime=1617724400&plen=10060","faceScore":{"featureConfidence":-52181328,"pupillaryDistance":79.980408,"pitchAngle":-5.005430,"yawAngle":-1.000264,"faceRect":0,"colorConfidence":1,"grayScale":186,"grayMean":167.565765,"grayVariance":61.904255,"clearityScore":0.400000,"rollAngle":1.302812,"poseConfidence":0,"frontalScore":0,"visibleScore":0.500000,"totalScore":0.249691}}],"image":"http://172.27.199.225:6113/pic?=d9ei0c9i514c*518-761i0m*ep0t3d9=*2pdi=*1s7i5361i9d7=*bb3530c74-1504f=4-196937-76s9c76z9163d="}]}
{"ipAddress":"172.26.105.81","protocol":"HTTP","macAddress":"","channelID":1,"activePostCount":1,"eventType":"captureResult","eventState":"active","eventDescription":"captureLibResult","uuid":"66CB16B9-ADA5-0F43-9840-836BA7E14FB7","dateTime":"2021-04-06T15:53:18+08:00","captureLibResult":[{"errorCode":1,"errorMsg":"ok","traceIdx":1,"traceUuid":"66CB16B9-ADA5-0F43-9840-836BA7E14FB7","targetAttrs":{"cameraIndexCode":"00520020001310002939","deviceName":"POL2_530804HGG_P02A_channel_2","linkFaceBodyId":"","faceTime":"2021-04-06T15:53:18+08:00","rect":"{\"x\":0.558000,\"y\":0.474000,\"width\":0.164000,\"height\":0.292000}","bkgUrl":"http://172.27.199.225:6113/pic?=d02i0c1e*14ci568-751e0=t1i9m*dp=*3pdi=*1s7i6341i9d7=*bb3530c74-1504f64-197637-97z9c7s=3103d6"},"faces":[{"faceId":0,"faceRect":{"x":0.269737,"y":0.434211,"width":0.351974,"height":0.351974},"facePose":{"pitch":5.008570,"roll":7.983820,"yaw":-1.001110},"smile":{"confidence":96,"value":"unknown"},"age":{"range":5,"value":25,"ageGroup":"young"},"gender":{"confidence":96,"value":"female"},"glass":{"confidence":96,"value":"no"},"modelData":"SElLREZSNDMwVFgAAAAAANrwqPEm5hzz+B3+3QAl/rLLWiAHGiAYBcfr/s7Nf4f88OPXMfDb+L8T4vQX1+bhAubZ7ADBBQ+oOfT4Cvzo1O/quurqJ7bHDBPsAgcw2LjLC8sR/R0Q1xMCKSEf7w832zHt7c0JQiXJOLLzCVxe3D3tRwDTAgrD5ewM6u2lVhfbYzEy1AUc+g6i4vI16/EgnB8OvgLSfwsi6AYMv70RAEkBvMYsRgrx6qkjJTPqCyH46Njo9/L20w7TOP4ETQbkNcU7Ow3ixjcMA+7qAA7VwgpO2GbX6Pl//f/rDEDoThvIf+QK8//1IBXa/vwZNcfrzUQZGvhBI1vg07QuBQTZ4vCAFhFx5enfB+kXI9YVOvL6wuk67Sv34hw83OMoKwJB2jvl3BcN7RJGzyYt4dtUpd/4KjXPC+Tp4zcF57jeGxXxBfBXrbfhMLbk5AXXSEgxwgTgGA1RFyLa7noJ/gkQ7/f7vdry+BnnN0bH1yDW15X5CsvaSQfT7RIgIDIBACMdOSvx7jEV9lQVp63wQTrtNzcE1AklQBr2FvVMWhMD0ykR//DnAuWeycBG89XdMRTsy0QFBcjfDhruIAXx1invIUmmwjPD8QkkUQ0XQzTulbDL+cnDs+DgCLPfuhkFG874HSHv3fzJGb0V9Q0A/g1BRe2TKfzpz8cdAunj1lgo4AUCOAC6AAIA","URL":"https://172.26.105.82:6121/pic?did=01008292646988382FA8709BB4CB99D907F6A7F749D450000007760000000000&bid=7760&pid=483907776&ptime=1617724402&plen=35401","faceScore":{"featureConfidence":-52181328,"pupillaryDistance":46.648399,"pitchAngle":5.008574,"yawAngle":-1.001112,"faceRect":0,"colorConfidence":1,"grayScale":145,"grayMean":125.696144,"grayVariance":41.379467,"clearityScore":0.650000,"rollAngle":7.983818,"poseConfidence":0,"frontalScore":0,"visibleScore":0.500000,"totalScore":0.400398}}],"image":"http://172.27.199.225:6113/pic?3dd773i31-e*5c9156173019--4cf4551b47703i3b3*=7d9*16d5i*s1d=i0p2*=1i4t=pe0m697-876sc417z5c0i=3="}]}
{"ipAddress":"172.26.105.81","protocol":"HTTP","macAddress":"","channelID":1,"activePostCount":1,"eventType":"captureResult","eventState":"active","eventDescription":"captureLibResult","uuid":"34D39F0E-A754-9043-A12E-42135A90674C","dateTime":"2021-04-06T15:53:18+08:00","captureLibResult":[{"errorCode":1,"errorMsg":"ok","traceIdx":1,"traceUuid":"34D39F0E-A754-9043-A12E-42135A90674C","targetAttrs":{"cameraIndexCode":"00520020001310002939","deviceName":"POL2_530804HGG_P02A_channel_2","linkFaceBodyId":"","faceTime":"2021-04-06T15:53:18+08:00","rect":"{\"x\":0.650000,\"y\":0.266000,\"width\":0.108000,\"height\":0.196000}","bkgUrl":"http://172.27.199.225:6113/pic?=d32i0c9e*14ci568-751e0=t1i1m*dp=*4pdi=*1s7i6341i9d7=*bb3530c74-1504f64-197637-97z9c7s=8183d5"},"faces":[{"faceId":0,"faceRect":{"x":0.259615,"y":0.350962,"width":0.375000,"height":0.379808},"facePose":{"pitch":0.013013,"roll":-25.944401,"yaw":61.000801},"smile":{"confidence":96,"value":"no"},"age":{"range":5,"value":45,"ageGroup":"middle"},"gender":{"confidence":96,"value":"male"},"glass":{"confidence":96,"value":"yes"},"modelData":"SElLREZSNDMwVFgAAAAAAP7GFyonBfsNLub01gEjrfAG9AvsZAOA7vL6AfnGMP/eORQB+PvMAWgBxP0ZrfEYUwnCEcQZBx8Z7c8pv8fSw7zexCr69/DyUA0kHfvjCmr4INeA/9Dp7wcB/fPq7gLjANbsMwfs6AsPELcL//rYSTNiOgD+NAYhFutG2hIJhCPz1BWhDCUX2Q0EAh7RBgoXJjTE9Sa5MdcK7EQBCrfaANDqWGrrZQYq2ioM2OesDwHY+CTcEm3S+BVTHARQOwL1FOJ227H6Jz5PB1gZAZNL6sb00C3K/u0IOELeB/TeGCcgPqzY7eIt4TYW4gt72fwJBRsSuxSx7iEbIx0uCRPiGLYAUPKxUvvIMLM2DdRK4sToQAIY8OksPeAfBqjay5EFPgdZDiVCHwDKr0Uj18L69RYe4AL6+SId0w5m5SJVEzQb9DApJvPxDVKmIAIQpMzgBP/qKsXtKiNHDwcD/Mrh/QDtApgO4sXmovz2AQgYBZjs7cL10J4A5TgZOOrvzvu9/QUk/CAPY9LUudTI9QU08s3v1JPW/fhCA6j9564Q+qIA+xkj4+zXAQX+Pg3XrwHa+gjw6BiE1fXNScW58uwVCKYJx/E69yQlGQkhM+zW8QTe/DnyIv9bES4eJike5KTi9xgj5wjKBE/M7g0770EX/Rvv+iSzGpYS8ajg4hzhQPbgOACqAA0A","URL":"https://172.26.105.82:6121/pic?did=01008292646988382FA8709BB4CB99D907F6A7F749D450000007760000000000&bid=7760&pid=484206272&ptime=1617724403&plen=15561","faceScore":{"featureConfidence":-52181328,"pupillaryDistance":10.533411,"pitchAngle":0.013013,"yawAngle":61.000759,"faceRect":0,"colorConfidence":1,"grayScale":101,"grayMean":124.419060,"grayVariance":39.909233,"clearityScore":0.350000,"rollAngle":-25.944441,"poseConfidence":0,"frontalScore":0,"visibleScore":0.800000,"totalScore":0.197657}}],"image":"http://172.27.199.225:6113/pic?4dd771i31-e*5c9156173019--4cf4551b47703i3b3*=7d9*16d5i*s1d=i0p2*=2i4t=pe0m697-876sc417z5c0i=9="}]}
{"ipAddress":"172.26.105.81","protocol":"HTTP","macAddress":"","channelID":1,"activePostCount":1,"eventType":"captureResult","eventState":"active","eventDescription":"captureLibResult","uuid":"22100241-C637-AE49-9DBC-BDCA9D5C80D4","dateTime":"2021-04-06T15:53:22+08:00","captureLibResult":[{"errorCode":1,"errorMsg":"ok","traceIdx":1,"traceUuid":"22100241-C637-AE49-9DBC-BDCA9D5C80D4","targetAttrs":{"cameraIndexCode":"00520020001310002939","deviceName":"POL2_530804HGG_P02A_channel_2","linkFaceBodyId":"","faceTime":"2021-04-06T15:53:22+08:00","rect":"{\"x\":0.933000,\"y\":0.222000,\"width\":0.064000,\"height\":0.166000}","bkgUrl":"http://172.27.199.225:6113/pic?=d42i0c7e*14ci568-751e0=t1i4m*dp=*4pdi=*1s7i6341i9d7=*bb3530c74-1504f64-197637-97z9c7s=0193d4"},"faces":[{"faceId":0,"faceRect":{"x":0.508929,"y":0.443182,"width":0.526786,"height":0.340909},"facePose":{"pitch":-14.977900,"roll":-11.797700,"yaw":-34.998402},"smile":{"confidence":96,"value":"yes"},"age":{"range":5,"value":37,"ageGroup":"young"},"gender":{"confidence":96,"value":"female"},"glass":{"confidence":96,"value":"no"},"modelData":"SElLREZSNDMwVFgAAAAAABhr+FHnBNIW4039CcgAJwrpNx4J2kn8KBgF3M0k8R/F4RYMPVbQCxnozEkXZO4k9jsYMPQSHugFGALJueAZ3hDH9f5L4Sn65ysEA/wgFTkJ02cSHwZXFTQE5c1i/gEj2/EPd//V2M8C7ODT+xbX6cA6TAAt9Kgk9j3hENjB5Cb7m/5NSRrzKN8zCdq9Zs/mAvVH3zlOyvMO5RTb7zYTAAoFT/L0NuW/vf/bVvDLNaxM5Cr5Nt8cBstNbesaDvMtDxcSyDYoAO4g/dClCf46IiL++c/8pP8F9ePnNSPb2uXwLMnyXe4BUrl9CRPY+MDWCdYu/EQA4jkDCwyO7KLZwuQdBOT+BPGitRXYAw0yxPEPCdWqMconGsRN7ROAw+gXmuP+MMQJ294RTyIIKAyKP9z07EU6FhFi8wMT3a8NChDzCvCMCUcr/wL+RfIN39oRzOsWA9330hfTM9ghyR3v0hA/BLcJAOABMuQg1TcX+wfd7f0MBTDXCT+aCQP3/MvjJPMXSrzcJAyiHM36AR74um4VJQrw7/gsHNfz2usJcfUXAL4n39knI/AA2RIIHiT+++cBKALR00kN0g2hsuJOAr0G62wQI+O22v896tw2/xAPGd4qQNXTxMgg5tlY2yTj6SvT0n8Wx+c1JRIAzOcWwHnD1QHbPsITD/G5ShYUxxzvOACcoAIA","URL":"https://172.26.105.82:6121/pic?did=01008292646988382FA8709BB4CB99D907F6A7F749D450000007760000000000&bid=7760&pid=485354688&ptime=1617724404&plen=6760","faceScore":{"featureConfidence":-52181328,"pupillaryDistance":17.810892,"pitchAngle":-14.977903,"yawAngle":-34.998421,"faceRect":0,"colorConfidence":1,"grayScale":162,"grayMean":183.909943,"grayVariance":58.189785,"clearityScore":0.450000,"rollAngle":-11.797708,"poseConfidence":0,"frontalScore":0,"visibleScore":0.500000,"totalScore":0.217979}}],"image":"http://172.27.199.225:6113/pic?=d9ei0c6i514c*518-761i0m*ep0t4d3=*2pdi=*1s7i5361i9d7=*bb3530c74-1504f=4-196937-76s9c77z6163d="}]}
{"ipAddress":"172.26.105.81","protocol":"HTTP","macAddress":"","channelID":1,"activePostCount":1,"eventType":"captureResult","eventState":"active","eventDescription":"captureLibResult","uuid":"34CDD1FE-7BCA-064D-B38C-030889FE025C","dateTime":"2021-04-06T15:53:28+08:00","captureLibResult":[{"errorCode":1,"errorMsg":"ok","traceIdx":1,"traceUuid":"34CDD1FE-7BCA-064D-B38C-030889FE025C","targetAttrs":{"cameraIndexCode":"00520020001310002938","deviceName":"POL2_530804HGG_F02A_channel_1","linkFaceBodyId":"0DC2810EC2E8974c861E4239CB48ACD7","faceTime":"2021-04-06T15:53:28+08:00","rect":"{\"x\":0.333333,\"y\":0.669776,\"width\":0.021875,\"height\":0.039179}","bkgUrl":"http://172.27.199.225:6113/pic?=d73i0c6e*14ci568-751e0=t1i6m*dp=*4pdi=*1s7i6341i9d7=*bb3530c74-1504f64-197637-97z9c7s=3113d9"},"faces":[{"faceId":0,"faceRect":{"x":0.250000,"y":0.290625,"width":0.525000,"height":0.537500},"facePose":{"pitch":-24.997601,"roll":-19.641500,"yaw":8.999230},"smile":{"confidence":96,"value":"yes"},"age":{"range":5,"value":31,"ageGroup":"young"},"gender":{"confidence":96,"value":"female"},"glass":{"confidence":96,"value":"no"},"modelData":"SElLREZSNDMwVFgAAAAAAAlC/tqs2/8UI2TvTLwoFvMw0xUcARvHGFoaPa0F6TMT+9EFCzjgJeYVMuQR1NYiHCslBtc3KhG8uhLP2AwVYTnNNgPc8iLZbNnzDNYUHVsT4FUhHBMVQxL2xc9v7RW3FdNA7CvuRgkX5uPL3g0t8a4oGQDpDA40HifYLtkJ4DkPwuDhB7TuPAFJxRXHHwfr9hU3ORVI0P8QkiL2vVYTAMXuQSnm3gvg5gxjPgTOUfEe0AQN80DyFwEwMs8BIQgwGSjsmO0PG9dWHuXznxAXPyADKB3WCCb2uQjq5yjY0NDNHdGxdurwtOU06cHeKsgdEf77qDOp4QjD4U/4xhXwzD/OMq7y8ua4GkXXuhYzQQUI0/66e9lX2e1KFBmzvxc9Kr2nT4D46v9sO9siTw4iJQXR7ubMNOBTFCjHD7ot/AEcOB26O0MODB3RALQ6yAAt3PTITv+d/BjFf8zn+uH39Mv1ISou6tE6Q9gW9CzVEsoQDjDL+fbXXfvWEBUQCQELwPNHZvjeE8D0Hcb2C/pE6jUDOBIv39U+LObXBaQPCe0q8toE8fXoAOv2+Q3vPS317Ark5/TfClELx+P9ABciJxId7xc++9LSCgPS8voS5fXq7w1hFxUE98sZ+CHSyfEFzhTN1+f/zWgnWe7R9j47/x/e5+DpFIIATqD8CAEu9cz8OABEAwIA","URL":"https://172.26.105.82:6121/pic?did=01008292646988382FA8709BB4CB99D907F6A7F749D450000007760000000000&bid=7760&pid=488078528&ptime=1617724411&plen=9501","faceScore":{"featureConfidence":-52181328,"pupillaryDistance":85.178673,"pitchAngle":-24.997585,"yawAngle":8.999226,"faceRect":0,"colorConfidence":1,"grayScale":193,"grayMean":153.408447,"grayVariance":59.637753,"clearityScore":0.250000,"rollAngle":-19.641460,"poseConfidence":0,"frontalScore":0,"visibleScore":0.500000,"totalScore":0.257454}}],"image":"http://172.27.199.225:6113/pic?=d3ei0c9i514c*518-761i0m*ep0t4d4=*2pdi=*1s7i5361i9d7=*bb3530c74-1504f=4-196937-76s9c77z4173d="}]}
{"ipAddress":"172.26.96.37","protocol":"HTTP","macAddress":"","channelID":1,"activePostCount":1,"eventType":"captureResult","eventState":"active","eventDescription":"captureLibResult","uuid":"3812C03D-AECA-C145-AA76-23E428402602","dateTime":"2021-04-06T15:53:17+08:00","captureLibResult":[{"errorCode":1,"errorMsg":"ok","traceIdx":1,"traceUuid":"3812C03D-AECA-C145-AA76-23E428402602","targetAttrs":{"cameraIndexCode":"00520020001310000693","deviceName":"bjQTqwal_channel_5","linkFaceBodyId":"","faceTime":"2021-04-06T15:53:17+08:00","rect":"{\"x\":0.216000,\"y\":0.503000,\"width\":0.170000,\"height\":0.303000}","bkgUrl":"http://172.27.199.225:6113/pic?=d51i0c0e*14ci668-751e0=t1i4m*dp=*6pdi=*1s7i6341i9d7=*bb3530c74-1504f64-197637-90z9c7s=0133d0"},"faces":[{"faceId":0,"faceRect":{"x":0.340625,"y":0.381250,"width":0.337500,"height":0.337500},"facePose":{"pitch":-24.980301,"roll":11.153200,"yaw":-10.001300},"smile":{"confidence":96,"value":"unknown"},"age":{"range":5,"value":46,"ageGroup":"middle"},"gender":{"confidence":96,"value":"female"},"glass":{"confidence":96,"value":"no"},"modelData":"SElLREZSNDMwVFgAAAAAAPnRNgDRKeCuJSwXJxEwUNcj4CoW8B3i4ukvN/YIf1jF3w30Evju7fjdqa74BfUNCTmZ5bn2SSCEsOcdztQhE+Ht5e4GRADKG/f0y7i+/iHlKunayw4p4vcVFOXQDwfb4yRhv74b6/H9cDPXGxkHEwK3WgAsADbKzDspOcQ18swfJOkDFvnPVtH3IRzyOtlBqg8W4z03/esw/zTezhQaABfx/9XyMZsE2QHh8W7uf/IOHa8qvfH74P/zMtYNJ/YSBfDg1vrW9A4ZihD8yzmwKPUf6x001AkAIQG0ohYh+AMpkM8z7/PmBxYPJRUlORwPHave7NIJsyW4+RwFGjBE4DPPveIAKNApEt8c4jgHD/ut9OUquF0QAOjy+PUB9uiwHS0JIf/gvxs9H/kL4Pni3e3f9Q3Q0yzjLjwc6u0I3BXaOv4q69rJwC/oEi/t4xv9vYcANlDxLfgbfx+P+wTo69zr/gQJ4TrH8+1YqyyiOZPhXOc67SotIMHE0Rj2/Un08+E4ZOXnT+T2GizhKv0bLRK/BBPS6wHhxLjbGAwEBg39DtMngvq5/74Y9yVd8xAnDDT72FrzBN3H/RaYAfQSEPUI3/qrzzMC+hIP9NxQMioWuf1S0PZd2vA03Rvz2SYBqBbuQtVa+1pQ1N7rTCgNBhvO5jkX1tE09r72vTzO+O3DOAB0AwIA","URL":"https://172.26.96.38:6121/pic?did=01001480869755F376793FBFA4536BE61EFEA2B0EF7460000003906000000001&bid=3906&pid=861753536&ptime=1617724400&plen=23340","faceScore":{"featureConfidence":-92041888,"pupillaryDistance":49.831905,"pitchAngle":-24.980339,"yawAngle":-10.001298,"faceRect":0,"colorConfidence":1,"grayScale":141,"grayMean":112.923454,"grayVariance":50.996952,"clearityScore":0.450000,"rollAngle":11.153236,"poseConfidence":0,"frontalScore":0,"visibleScore":0.500000,"totalScore":0.339144}}],"image":"http://172.27.199.225:6113/pic?2dd762i31-e*5c9166173019--4cf4551b47703i3b3*=7d9*16d5i*s1d=i0p2*=1i5t=pe0m697-876sc410z3c0i=7="}]}
{"ipAddress":"172.26.96.37","protocol":"HTTP","macAddress":"","channelID":1,"activePostCount":1,"eventType":"captureResult","eventState":"active","eventDescription":"captureLibResult","uuid":"1C77BA50-C3E1-1641-A4D3-105AF133A5AD","dateTime":"2021-04-06T15:53:23+08:00","captureLibResult":[{"errorCode":1,"errorMsg":"ok","traceIdx":1,"traceUuid":"1C77BA50-C3E1-1641-A4D3-105AF133A5AD","targetAttrs":{"cameraIndexCode":"00520020001310000692","deviceName":"POL2_120449CLE_P11A_channel_2","linkFaceBodyId":"","faceTime":"2021-04-06T15:53:23+08:00","rect":"{\"x\":0.650000,\"y\":0.162000,\"width\":0.070000,\"height\":0.125000}","bkgUrl":"http://172.27.199.225:6113/pic?=d32i0c0e*14ci668-751e0=t1i5m*dp=*6pdi=*1s7i6341i9d7=*bb3530c74-1504f64-197637-90z9c7s=6143d9"},"faces":[{"faceId":0,"faceRect":{"x":0.421875,"y":0.375000,"width":0.398438,"height":0.390625},"facePose":{"pitch":-5.028320,"roll":6.765850,"yaw":-19.003901},"smile":{"confidence":96,"value":"no"},"age":{"range":5,"value":24,"ageGroup":"young"},"gender":{"confidence":96,"value":"male"},"glass":{"confidence":96,"value":"no"},"modelData":"SElLREZSNDMwVFgAAAAAAC38Icj7UPD9H/QDDjI+ydXz8RPyUboLFBoBHMzT418I78kN4tnMDiL1ZsfLKyFB88zvKDMIC58wKNgOGeEQqt7KShP871TH5Mj8G/ISBlA0TwW3NS1I6iYAwwXX4v9R9/YmFgx5JfTUOeB/xf32dAIT6gAGG9UGKkalCNAFvrc14vcIGboDlRO9CAgH9+47+zoS7AwpDgnR+Bv3+sIoADARISLmNjvFGOfvFAHC6Na7+hD9og/j59ry1Mc3Ph8K9dY/wwIrzRYf9xz/8LDjDTA2stGl+/Kw2NHXMBIkyvSYK93Y+RcJ5Rf3mdrxUwHmL/Dw4xEzthcU90IkvPHIYObkVfc79uq/PyURMuAiZxTmTx+lS/FE/czJCiEBQQTCLTwe89Lb9WXd6wQU6BkWDyjPHu/CPzFCECrcUshSexPtQATSIh7KKxrcDtKZ2QcWxPoVHSw7tgeXBPUgNelHPcMJ3DQl3P/h4IcX1zcQ+qwDxAwI9dXg8SSAGzDaFBy7DOpFx8seOOjHCwrkEsT49xD6068cIt7QNOINA9gWCAsWFPJAI9ga38/6ObLQ68A34lTbRP0L2qv/NOi23fLiChYdL+EPBuY05VHuAPzWzSsZm+Xj2ybw5wTI9yAWDRDZAjb9MoH/Sy3tHO296C0eFjP2vh0sw9DsF9r5J/j35hMIOADOcwYA","URL":"https://172.26.96.38:6121/pic?did=01001480869755F376793FBFA4536BE61EFEA2B0EF7460000003906000000001&bid=3906&pid=863859392&ptime=1617724407&plen=8163","faceScore":{"featureConfidence":-92041888,"pupillaryDistance":8.914598,"pitchAngle":-5.028318,"yawAngle":-19.003864,"faceRect":0,"colorConfidence":1,"grayScale":85,"grayMean":86.107658,"grayVariance":23.557634,"clearityScore":0.150000,"rollAngle":6.765847,"poseConfidence":0,"frontalScore":0,"visibleScore":0.500000,"totalScore":0.199645}}],"image":"http://172.27.199.225:6113/pic?0ddd9=sf4-z09e1167=03i6m*ep=t9p0i=d1s*i1d51*6d4=*3b4i90974b15547cc--b05168-015*6ae6i826ie9="}]}
{"ipAddress":"172.26.96.37","protocol":"HTTP","macAddress":"","channelID":1,"activePostCount":1,"eventType":"captureResult","eventState":"active","eventDescription":"captureLibResult","uuid":"06702D40-80AE-4842-80F9-13A16CA32A30","dateTime":"2021-04-06T15:53:25+08:00","captureLibResult":[{"errorCode":1,"errorMsg":"ok","traceIdx":1,"traceUuid":"06702D40-80AE-4842-80F9-13A16CA32A30","targetAttrs":{"cameraIndexCode":"00520020001310000692","deviceName":"POL2_120449CLE_P11A_channel_2","linkFaceBodyId":"","faceTime":"2021-04-06T15:53:25+08:00","rect":"{\"x\":0.133000,\"y\":0.325000,\"width\":0.100000,\"height\":0.177000}","bkgUrl":"http://172.27.199.225:6113/pic?=d32i0c9e*14ci668-751e0=t1i6m*dp=*6pdi=*1s7i6341i9d7=*bb3530c74-1504f64-197637-90z9c7s=5123d9"},"faces":[{"faceId":0,"faceRect":{"x":0.359375,"y":0.406250,"width":0.338542,"height":0.338542},"facePose":{"pitch":-19.985399,"roll":7.270570,"yaw":-41.000999},"smile":{"confidence":96,"value":"no"},"age":{"range":5,"value":49,"ageGroup":"middle"},"gender":{"confidence":96,"value":"female"},"glass":{"confidence":96,"value":"yes"},"modelData":"SElLREZSNDMwVFgAAAAAAAn3+Bb1JSuwYTQ54hQJuhrG4e/TF0pBvHft8QGfEg81AOi4Gvf+ECfZLulUKwAm3+o7+SL35ibO0ckPMQ27EeUCttwp++ivLEsoGbg45CIEraWoxQ/h2SgMFlQrDsv20+ojK+XkLONOYvQ1Hw8byCkq2AAK3/L5Eg3l5hwDrsIzISJEzNfj7RAoL+4nM9JI+++4EeYE7PjcyA3W5+XUABdgoVDg7cvq7VcILEZEBZtLJcPaFQ8dBt0P+vw2B/GeQtxFDtSxKhoNyUnYHPQ377v+7fAX5a4kzAkCwS9E+jxnBgLsFAsB2OAU8/k5MR3x8r7JDCYb2iw3vbs7xuH/B0okVELj6QYpfvvdSC7GN9rSEBH1ukMe6xf6uBUL4wrM9LQh2uf+CPcY8vXX7O4SC9Purw/V9t0WutXy9RILFq/pPfjg7AY1DegAM90hHwQ/3g4S110kuB69KhaUJ/sZOgUr4dk6QQ5fEFYgDtMzGL5RJw8eO9+fvgbtKCLxy9EfNvUA1+XaDNzTxTup1AP0wQTaD8RHLQwaHKrUDuYRAMv60E3pzLkdEPBQNTpG+xbGPgVGxBrRAiIuP2OpTzr4TxUq/AL71SAWSFbuINAjAPgJn+obAykY2un0GuLP7fsL6Po7PNLJocffIvPFCiT8+A685UNNDU312+cEvD7w6dOgOACGhAIA","URL":"https://172.26.96.38:6121/pic?did=01001480869755F376793FBFA4536BE61EFEA2B0EF7460000003906000000001&bid=3906&pid=865116352&ptime=1617724409&plen=11800","faceScore":{"featureConfidence":-75264672,"pupillaryDistance":17.478962,"pitchAngle":-19.985397,"yawAngle":-41.001049,"faceRect":0,"colorConfidence":1,"grayScale":64,"grayMean":67.674187,"grayVariance":17.489637,"clearityScore":0.100000,"rollAngle":7.270568,"poseConfidence":0,"frontalScore":0,"visibleScore":0.100000,"totalScore":0.179052}}],"image":"http://172.27.199.225:6113/pic?7dd761i31-e*5c9166173019--4cf4551b47703i3b3*=7d9*16d5i*s1d=i0p2*=3i5t=pe0m697-876sc410z1c0i=3="}]}
{"ipAddress":"172.26.112.117","protocol":"HTTP","macAddress":"","channelID":1,"activePostCount":1,"eventType":"captureResult","eventState":"active","eventDescription":"captureLibResult","uuid":"3D145188-7507-FE48-9E5B-8B4496AC3E4B","dateTime":"2021-04-06T15:53:16+08:00","captureLibResult":[{"errorCode":1,"errorMsg":"ok","traceIdx":1,"traceUuid":"3D145188-7507-FE48-9E5B-8B4496AC3E4B","targetAttrs":{"cameraIndexCode":"00520020001310003840","deviceName":"hn3lA2r5_channel_5","linkFaceBodyId":"","faceTime":"2021-04-06T15:53:16+08:00","rect":"{\"x\":0.075000,\"y\":0.044000,\"width\":0.158000,\"height\":0.281000}","bkgUrl":"http://172.27.199.225:6113/pic?=d72i0c5e*14ci568-751e0=t1i8m*dp=*6pdi=*1s7i6341i9d7=*bb3530c74-1504f64-197837-93z9c7s=8113d8"},"faces":[{"faceId":0,"faceRect":{"x":0.404605,"y":0.401316,"width":0.332237,"height":0.328947},"facePose":{"pitch":-39.998600,"roll":-11.043200,"yaw":-25.999399},"smile":{"confidence":96,"value":"no"},"age":{"range":5,"value":58,"ageGroup":"middle"},"gender":{"confidence":96,"value":"male"},"glass":{"confidence":96,"value":"no"},"modelData":"SElLREZSNDMwVFgAAAAAAPYB7xL4pxnCERrhpujC5x8gKcckEZbKO+hATdjQ7a/MGUG9BUvwCRHSJvLvyRMFIQ30387v9tPS7VY5Li3IVtcb0hfjqDzOKkNgS7H01Q3r36UB4QUkzv36zNQlENsuqMsc+inj018cGxw33CYt+yvrBgA8CxLd2eIZTxkK0Pbhsq/jCATNxRsMJBvj7O3f+DTf/QZA3BgZJg4NGaH9AP3Jmy0KD+YnJtsQ5COuS/HS+eq8J/H33kbR5wDN5FIK5B/J3sUPMQr2/fACgBUr0hwl9OM2bSUdDuvwDhQyRlgRKr8D7/MyLNgOJA2ADyXCCPE0EvvLFlAx/8r54sAJmCYbI9G7GT4uOhrgFPEk+xlX3NP57tD50ir/yrUXNvr11w0sA00FJ9C8JNY3If0mTxgJAU5E5RUdIyUimh8D++kBKeRNyAfjvO3ICwcT0vM7APIMy9AI+UgSwAzoItT62u2QKv4x+QHw/RzbygRD1ubiD049wdHLQKsI5/AoFTEvEiY8FDX3tkXqqOfyOLkO/7w6Oic8HDhF/e34wwgDRiAs+7wqF8cCBifZvRTy/tLR8MW6VmK7tzgn/fPo/unH+jfFtFwjTMjqvq7e2kFQ7BACwtKfBQL29QzuBjzu0z8Z6cTYOBok1CpK1aH1GfvW2i3XGwsVSzf2LaP6AwZBLRw1OAAGAAIA","URL":"https://172.26.112.118:6121/pic?did=0100C810022996715C3F4E1754F768EA5DD6617A6A39E0000010646000000000&bid=10646&pid=53661696&ptime=1617724399&plen=38979","faceScore":{"featureConfidence":-56375632,"pupillaryDistance":36.482632,"pitchAngle":-39.998573,"yawAngle":-25.999378,"faceRect":0,"colorConfidence":1,"grayScale":123,"grayMean":88.770485,"grayVariance":36.338207,"clearityScore":0.550000,"rollAngle":-11.043212,"poseConfidence":0,"frontalScore":0,"visibleScore":0.100000,"totalScore":0.187638}}],"image":"http://172.27.199.225:6113/pic?9dd753i31-e*5c9156173019--4cf4551b47703i3b3*=7d9*16d5i*s1d=i0p2*=4i5t=pe0m697-878sc413z8c0i=1="}]}
{"ipAddress":"172.26.96.37","protocol":"HTTP","macAddress":"","channelID":1,"activePostCount":1,"eventType":"captureResult","eventState":"active","eventDescription":"captureLibResult","uuid":"74FBC4B9-CBEF-8C4B-9488-C1B705441749","dateTime":"2021-04-06T15:53:27+08:00","captureLibResult":[{"errorCode":1,"errorMsg":"ok","traceIdx":1,"traceUuid":"74FBC4B9-CBEF-8C4B-9488-C1B705441749","targetAttrs":{"cameraIndexCode":"00520020001310000692","deviceName":"POL2_120449CLE_P11A_channel_2","linkFaceBodyId":"","faceTime":"2021-04-06T15:53:27+08:00","rect":"{\"x\":0.641000,\"y\":0.133000,\"width\":0.070000,\"height\":0.129000}","bkgUrl":"http://172.27.199.225:6113/pic?=d62i0c2e*14ci668-751e0=t1i9m*dp=*6pdi=*1s7i6341i9d7=*bb3530c74-1504f64-197637-90z9c7s=4113d6"},"faces":[{"faceId":0,"faceRect":{"x":0.414062,"y":0.554688,"width":0.289062,"height":0.296875},"facePose":{"pitch":-0.020107,"roll":14.458200,"yaw":23.001499},"smile":{"confidence":96,"value":"no"},"age":{"range":5,"value":45,"ageGroup":"middle"},"gender":{"confidence":96,"value":"female"},"glass":{"confidence":96,"value":"no"},"modelData":"SElLREZSNDMwVFgAAAAAAF/tBQUI6uPuXRoJuwUa6aQOACYAIa3uHeDUB/z0wSwNIAPYpdnMZAwJJwWGXRgoMe4bz/vxKwUFIr4g9BDv+/n2MfvmzEfm1/ng/dwGDy0ySrQZRt0v0S4UAEYC4uUj9AT79sBu8jfRWOVR4dnyPjse4ADWGLvuUB3PwPDrVOD88/8U/Lv6xRG+FjMGw9BH70s2HNkJUVEl8iivCsU1AAP+TV4Z91gfQ/4MPvwa+t3FBxYCt+zD1CIyCdIPIvIAAbH5MA0O/SMtKT8YWZ9Hy1UuwP8Z5goG9d3B3f7ZAfOA67b9Ix8bL+AnzNn+NsELNk4KAAxC3eIW+SE55gbHOycqKy4EMgblVbbsf/AeJq3p+xwa/sgC3eP13A1J/aHgBQkHZDvo48Yb++/iE+Up7eXTyxEPiN0I1eP9GwwuP9C3HRagI0QqxFa4BCTa0k79oQrz4u3v2l66DhYW2PUJJv814X8AEx4I3hQB9eDFIOyo4ewp6PkdIRbU/vPy+jfA3DUfsP0xK0jMutshlgPLM0UnBRQQBuQ3Bcz6xPgmCdIMEPPNBA0NINpG0RhC/DAsIiQZBrBIyV4QDRKfFigb0/H09Ksp47gRy/XkE+cXuiPNodjm6TQ6JQFM3cb/V/or/gQDHxXlF+sBFBMH9yAvBRmsHexYOhqgEOng6e9E/WzeOABSXgYA","URL":"https://172.26.96.38:6121/pic?did=01001480869755F376793FBFA4536BE61EFEA2B0EF7460000003906000000001&bid=3906&pid=864833728&ptime=1617724409&plen=7135","faceScore":{"featureConfidence":-92041888,"pupillaryDistance":10.382145,"pitchAngle":-0.020107,"yawAngle":23.001518,"faceRect":0,"colorConfidence":1,"grayScale":127,"grayMean":108.416664,"grayVariance":38.029160,"clearityScore":0.100000,"rollAngle":14.458156,"poseConfidence":0,"frontalScore":0,"visibleScore":0.100000,"totalScore":0.186255}}],"image":"http://172.27.199.225:6113/pic?0ddd1=sf4-z09e1167=03i6m*ep=t9p4i=d1s*i1d51*6d4=*3b4i90974b15547cc--b05168-015*6ae6i726ie7="}]}
{"ipAddress":"172.26.96.37","protocol":"HTTP","macAddress":"","channelID":1,"activePostCount":1,"eventType":"captureResult","eventState":"active","eventDescription":"captureLibResult","uuid":"EA10CF4D-6A43-E14B-A917-D8AAA747F49A","dateTime":"2021-04-06T15:53:42+08:00","captureLibResult":[{"errorCode":1,"errorMsg":"ok","traceIdx":1,"traceUuid":"EA10CF4D-6A43-E14B-A917-D8AAA747F49A","targetAttrs":{"cameraIndexCode":"00520020001310000692","deviceName":"POL2_120449CLE_P11A_channel_2","linkFaceBodyId":"","faceTime":"2021-04-06T15:53:42+08:00","rect":"{\"x\":0.625000,\"y\":0.103000,\"width\":0.093000,\"height\":0.159000}","bkgUrl":"http://172.27.199.225:6113/pic?=d21i0c9e*14ci668-751e0=t1i2m*dp=*7pdi=*1s7i6341i9d7=*bb3530c74-1504f64-197637-91z9c7s=6183d9"},"faces":[{"faceId":0,"faceRect":{"x":0.272727,"y":0.593750,"width":0.318182,"height":0.318750},"facePose":{"pitch":-29.997101,"roll":10.084900,"yaw":-38.000900},"smile":{"confidence":96,"value":"no"},"age":{"range":5,"value":38,"ageGroup":"young"},"gender":{"confidence":96,"value":"male"},"glass":{"confidence":96,"value":"no"},"modelData":"SElLREZSNDMwVFgAAAAAALzvEfkMGu2LG+0vGBv0HEclDl0ZHcg48jD/+cbV1vA1LAUFAui+ID0FICg0+94iFuwa6R3zSuIh3JnzA+NouNEML98PxUr7xwzxKfobGypCHvfKPDQJyAvx8X/7ulAH3Pg23u/8CKeUO+oDCvElC0c9+QDs/AEFChbm1jA+FQ4f8g8cNeL8B1ff4yT4BDo+8xDxug0LBi3i6Rb5FYUNAPEF+RA/kNrzLwLgU9z4Ds3H9xo3oUrd+yUcFTE75/0wO64BT/ct+ss/QSMBYJUUrPtB8C8rwOXy0qj6GCrYph/Qrc/p+xQDFiUFHNTJEBFHxsYY7r02+nE5/S5F+LnNDun858YmRR0IHP18YPX3f4q93vQTuwgXLgTZ2irMyx7UAPYM7MPq1BQZwAjl7xhL+NDlzdPLB9EyFzIHPiYSEx7/CBG1FU8DHgj//hYH5U3E4zgjNhfv7nu5+/YYMssfTtgUJPgW/hL72vNTsB8fA+sC0aoGEt+r0u7FGdm41BmXSTwInc/p+UT+mdUB0fy4GwxZKtP16+c1PyCm+BVe4PAb+f/9If3k//U2zubcDxMd8P0b//EJ/OEZG9/w5gky/B7v5Q/g7R3LCvrIP/IcwsXqnsBF4BbXk84w39BFf9RHCRgfTOMQx+ceCCITSyEm8EDdEgomz+W8PdEfBSQG0wQHOADOMwUA","URL":"https://172.26.96.38:6121/pic?did=01001480869755F376793FBFA4536BE61EFEA2B0EF7460000003906000000001&bid=3906&pid=867980480&ptime=1617724424&plen=6747","faceScore":{"featureConfidence":-92041888,"pupillaryDistance":14.224051,"pitchAngle":-29.997063,"yawAngle":-38.000942,"faceRect":0,"colorConfidence":1,"grayScale":51,"grayMean":79.330688,"grayVariance":15.515998,"clearityScore":0,"rollAngle":10.084921,"poseConfidence":0,"frontalScore":0,"visibleScore":0.500000,"totalScore":0.052972}}],"image":"http://172.27.199.225:6113/pic?6dd03=s34-z0969167=73069--5cf4551b47703i3b3*=7d9*12d9i*s1d=i8p3p=*m1i1t7-e150ca66i854*e8i86="}]}
{"ipAddress":"172.26.112.117","protocol":"HTTP","macAddress":"","channelID":1,"activePostCount":1,"eventType":"captureResult","eventState":"active","eventDescription":"captureLibResult","uuid":"623A7A53-8986-FB4F-A108-0EAC77A755DE","dateTime":"2021-04-06T15:53:59+08:00","captureLibResult":[{"errorCode":1,"errorMsg":"ok","traceIdx":1,"traceUuid":"623A7A53-8986-FB4F-A108-0EAC77A755DE","targetAttrs":{"cameraIndexCode":"00520020001310007533","deviceName":"hn3lA2r5_channel_1","linkFaceBodyId":"E1DE6FF2101C914596A93927313706F0","faceTime":"2021-04-06T15:53:59+08:00","rect":"{\"x\":0.923958,\"y\":0.589552,\"width\":0.022917,\"height\":0.041045}","bkgUrl":"http://172.27.199.225:6113/pic?=d54i0c2e*14ci568-751e0=t1i3m*dp=*7pdi=*1s7i6341i9d7=*bb3530c74-1504f64-197837-93z9c7s=8173d7"},"faces":[{"faceId":0,"faceRect":{"x":0.196875,"y":0.168750,"width":0.687500,"height":0.693750},"facePose":{"pitch":-24.989700,"roll":-7.721450,"yaw":-3.999180},"smile":{"confidence":96,"value":"unknown"},"age":{"range":5,"value":50,"ageGroup":"middle"},"gender":{"confidence":96,"value":"male"},"glass":{"confidence":96,"value":"no"},"modelData":"SElLREZSNDMwVFgAAAAAAOA5AOodx9fRDPnZs9u9FxIT5hMJ/fILQTtUetJZBK7cOkv1+j3ZFzP7Dbyj6hnnIjHg5fb7GxkuDAhVExLPVEQqKAbXife8DyIGTI/w3/na6wXm/A7mueUw7rMQPF3/+OMhAhLhBv4JGfE66/0tFAjWGgAQ+OD68+QQEcVSwKXq0ffn+//XrSAlLCEKPNv52jjLBtwn1OLRAV8gGeoCAOH8wAfeWOgE/CTu6uiyOOf46Lu8FS6aATvn6A4SJ0/Ku8/d4+JG+fjTCCwwn+FJxwUhq9A4XQoVD9Sk8/NXHBUMBfgw8Ok7AO3Xr+mARNMHRvMcNgjixjJM/sMy++4H0x7OSSyP+rIf6B4HPcMSBPlC3/IREtH36nMn0ugaIADU2eskS+7z8NjqNrcZCAI1KRkQ2Ss45OQgKA3d4xUMq+gEAvBa5BQr2yC0A0FsC84zGP442MyevAQNrDbkEO0gMACjDdcO5tvNBfLmBFM1KRrSJ0z+8oTyPuKk2PtUIvc4/sVUqDf05SqZ7tzJWLYZBBvjGLoR5PJB29rd6cE9DGDuCNIMuef8Dxj9zxX73K7c7J8oD0/w6Q4aFQTQ2cAD0uTRARcWGNncBAHdIFIHAxsb4bfsLC397gc5tlEDBPoQ0O3VTjo7Oj8a4srx6t5LJiT/DBQHVyf/JOfR1UoQMOU9OAAGAAIA","URL":"https://172.26.112.118:6121/pic?did=0100C810022996715C3F4E1754F768EA5DD6617A6A39E0000010646000000000&bid=10646&pid=62484992&ptime=1617724448&plen=7654","faceScore":{"featureConfidence":-56375632,"pupillaryDistance":96.245529,"pitchAngle":-24.989708,"yawAngle":-3.999181,"faceRect":0,"colorConfidence":1,"grayScale":61,"grayMean":49.122368,"grayVariance":15.783281,"clearityScore":0.150000,"rollAngle":-7.721452,"poseConfidence":0,"frontalScore":0,"visibleScore":0.500000,"totalScore":0.278762}}],"image":"http://172.27.199.225:6113/pic?=d9ei0c7i514c*518-761i0m*ep0t5d5=*2pdi=*1s7i5361i9d7=*bb3530c74-1504f=4-196937-78s9c73z5103d="}]}
{"ipAddress":"172.26.96.37","protocol":"HTTP","macAddress":"","channelID":1,"activePostCount":1,"eventType":"captureResult","eventState":"active","eventDescription":"captureLibResult","uuid":"7D1DF553-7B10-644E-9A0F-111D8DA56170","dateTime":"2021-04-06T15:54:02+08:00","captureLibResult":[{"errorCode":1,"errorMsg":"ok","traceIdx":1,"traceUuid":"7D1DF553-7B10-644E-9A0F-111D8DA56170","targetAttrs":{"cameraIndexCode":"00520020001310000692","deviceName":"POL2_120449CLE_P11A_channel_2","linkFaceBodyId":"","faceTime":"2021-04-06T15:54:02+08:00","rect":"{\"x\":0.833000,\"y\":0,\"width\":0.133000,\"height\":0.185000}","bkgUrl":"http://172.27.199.225:6113/pic?=d82i0c3e*14ci668-751e0=t1i4m*dp=*7pdi=*1s7i6341i9d7=*bb3530c74-1504f64-197637-91z9c7s=4173d9"},"faces":[{"faceId":0,"faceRect":{"x":0.410156,"y":0.239583,"width":0.335938,"height":0.416667},"facePose":{"pitch":-40.030499,"roll":8.234530,"yaw":4.999630},"smile":{"confidence":96,"value":"yes"},"age":{"range":5,"value":45,"ageGroup":"middle"},"gender":{"confidence":96,"value":"male"},"glass":{"confidence":96,"value":"sunglasses"},"modelData":"SElLREZSNDMwVFgAAAAAALAm8Q4Z5mPyN88O+dz1wgMb/MLnPgz+OPbp7tYvC+T3yOn53AiKKiQWG+/83RE1HtsWKd0pHTcGvdju2toGtcfzSQjVKusEDUT29IAg2xwurPUvIxE1BQ/2nCzJNuEKIeP2+3vT1gPcXy70KEhH7/T8IAAMAAHw/skzCytAXeSw8ATs8wc77FPqzhoj8vHPuvQdzisrPwQED0Iwst8UAAbqIyHU6ufB7+G10bGm7LD4/PTtzAkLz/CYPw8IysXwXBMcEUftNtT8IEkiO8XJoQQoRB0RL/naB+kKMELm+QXKCAEd3fbv4CUnvfsXWRgtE8Pjvvj6uhXbf7ksDg652sNOCuww2Oz5LgdHLfYY+ulAAuQd5ToKU7zjUtodEvI0fworzCK98AkQ5rgbOQQjyxG7BSG/Mx0IxugkKetHQvIk5/fsBNa//BwIriz+M+TqCCY4BQJHYRUyGiLooxhS0vLLvujv8rLyEP8n0j0JyPoo1gYZG8XoSxTACyYWEfzn9hn/AhHk38k5CgT32AERCN/17sYNSSQUSfE07AvF0gcZELWlfytn1BkUJLrV9vKV3jgSc+7rAB37bPvM9PPjA/bLIlg4yRIAFzce7AQSxsib0Txx9fAVBgQa8/YR/eocDfUvABFbDibs37LMQ3MOMskL5UzxIkPgD8UIas/+5OzWOABpZAkA","URL":"https://172.26.96.38:6121/pic?did=01001480869755F376793FBFA4536BE61EFEA2B0EF7460000003906000000001&bid=3906&pid=872101568&ptime=1617724444&plen=14837","faceScore":{"featureConfidence":-75264672,"pupillaryDistance":36.508865,"pitchAngle":-40.030544,"yawAngle":4.999630,"faceRect":0,"colorConfidence":1,"grayScale":62,"grayMean":57.944397,"grayVariance":20.665228,"clearityScore":0.100000,"rollAngle":8.234534,"poseConfidence":0,"frontalScore":0,"visibleScore":0.500000,"totalScore":0.174052}}],"image":"http://172.27.199.225:6113/pic?7ddd31if4-e*5e116610351b--cc74551b47909i4b3*=9d5*18d8i*s1d=i8p2*=6i1t=pe0m698-076s6ae1z426i=7="}]}
{"ipAddress":"172.26.112.117","protocol":"HTTP","macAddress":"","channelID":1,"activePostCount":1,"eventType":"captureResult","eventState":"active","eventDescription":"captureLibResult","uuid":"8438C4E1-64EB-244C-826C-9BF4144A3EDC","dateTime":"2021-04-06T15:54:02+08:00","captureLibResult":[{"errorCode":1,"errorMsg":"ok","traceIdx":1,"traceUuid":"8438C4E1-64EB-244C-826C-9BF4144A3EDC","targetAttrs":{"cameraIndexCode":"00520020001310003840","deviceName":"hn3lA2r5_channel_5","linkFaceBodyId":"","faceTime":"2021-04-06T15:54:02+08:00","rect":"{\"x\":0.400000,\"y\":0.177000,\"width\":0.256000,\"height\":0.455000}","bkgUrl":"http://172.27.199.225:6113/pic?=d62i0c9e*14ci568-751e0=t1i0m*dp=*2pdi=*1s7i6331i9d7=*bb3530c74-1504f64-197837-94z9c7s=4143d1"},"faces":[{"faceId":0,"faceRect":{"x":0.366667,"y":0.354167,"width":0.314583,"height":0.312500},"facePose":{"pitch":-20.012501,"roll":-4.140570,"yaw":2.004110},"smile":{"confidence":96,"value":"no"},"age":{"range":5,"value":63,"ageGroup":"old"},"gender":{"confidence":96,"value":"female"},"glass":{"confidence":96,"value":"no"},"modelData":"SElLREZSNDMwVFgAAAAAANhACyYlgAgB/+362t231fTB2CXs1635CtFbVMYgM936Ryvl7kvjItA7DxnN6f4bEs3PHOncSwEdASMZ2TkPRTQW5gv/pfTTSC5GOswL2bUkMboj/z7Pw0kU9QcWRkoj6eBJDSPwyxvpCcgy+Rrd8+LKxQAfKiMfCNQwLvox9cUS6grrAfPhnivm6QYMCP72EkOt7NU21ezpMDY0EPD8AAHe8/HTJwEUPwAZ6e7QPREtBL26YiDj7+ohAOcC91zMvwIXsfAdJeO+ISj/gLpby2j47vUeOtbx+B+9GQAy0gz+L70RpDjzN8vq2CiJHe3gI9ZDOiut9BowOrgx6r7hxgwIIDnSzuwI88DPVdgl4E0k/OsGvJfB+kM0rtgf9t7z3Oz0QvXkCAn4LhdmxxwaVzgT/vAY6M7o3fn64iQUyen8+vEmCeEh+SrkFu/A7aIxBNYmxM/w/90rrPMC7vYT3QfhArorFMezIyDK9fE7CuKmFkP8yabC7OLG3a/46fLm/ehM+CIIKEvQEvsceevf2D8E/uw/0912musB/eA35hg/+BHg4af6Pv/5Dt7iz9mi0uwKd0T2vSIKBf+uGsQS9vMQGvYoJ9Ld+AGnEmYnqT3LtRPh1Wkp+fQrAVHKxxIu3hziGgYDCufrPvPsDuf4DiD2szK+YiWtIb3UCB/sMOxJOACj/wMA","URL":"https://172.26.112.118:6121/pic?did=0100C810022996715C3F4E1754F768EA5DD6617A6A39E0000010646000000000&bid=10646&pid=61163008&ptime=1617724446&plen=109403","faceScore":{"featureConfidence":-56375632,"pupillaryDistance":62.420845,"pitchAngle":-20.012535,"yawAngle":2.004107,"faceRect":0,"colorConfidence":1,"grayScale":114,"grayMean":126.746811,"grayVariance":32.119968,"clearityScore":0.700000,"rollAngle":-4.140567,"poseConfidence":0,"frontalScore":0,"visibleScore":0.100000,"totalScore":0.415796}}],"image":"http://172.27.199.225:6113/pic?=d31i0c9e*14ci568-751e0=t1i7m*2p0i5d1=*ipd6=*9s7=53b1i3d77*b13540c44-9503f69-1978s7-14z0c7d9=33"}]}
{"ipAddress":"172.26.96.37","protocol":"HTTP","macAddress":"","channelID":1,"activePostCount":1,"eventType":"captureResult","eventState":"active","eventDescription":"captureLibResult","uuid":"D33F2316-34A7-A64B-979D-DE9816BAF758","dateTime":"2021-04-06T15:54:02+08:00","captureLibResult":[{"errorCode":1,"errorMsg":"ok","traceIdx":1,"traceUuid":"D33F2316-34A7-A64B-979D-DE9816BAF758","targetAttrs":{"cameraIndexCode":"00520020001310000692","deviceName":"POL2_120449CLE_P11A_channel_2","linkFaceBodyId":"","faceTime":"2021-04-06T15:54:02+08:00","rect":"{\"x\":0.741000,\"y\":0,\"width\":0.108000,\"height\":0.177000}","bkgUrl":"http://172.27.199.225:6113/pic?=d02i0c8e*14ci668-751e0=t1i7m*dp=*7pdi=*1s7i6341i9d7=*bb3530c74-1504f64-197637-91z9c7s=1123d3"},"faces":[{"faceId":0,"faceRect":{"x":0.403846,"y":0.270833,"width":0.346154,"height":0.375000},"facePose":{"pitch":-40.007801,"roll":5.572270,"yaw":-13.996700},"smile":{"confidence":96,"value":"unknown"},"age":{"range":5,"value":48,"ageGroup":"middle"},"gender":{"confidence":96,"value":"male"},"glass":{"confidence":96,"value":"yes"},"modelData":"SElLREZSNDMwVFgAAAAAAOLw7kYP3w/uJMrP0NUN3RD66BD0WRrBBP79FfTmLaTQ3fuz8s3uOFX9RevcUwwQHCgX4u1XExya/fT7w/PPUPX/VhUR9FMNzfiAEdeO4QkRN70v74kD4McpFEFRABfb59PTyxzxs1bYQlo1Re0I4ipICQDjDcAPNvlaQ7HnIe/Vpxnb3vX3ChEM+g4iJfAbNNUtFdrJ78wVHiQMzOcJAA1K4/Xv1xmmDSuguBP9RwAd/PC58wX851IYIWoVFjZjMf/46Psu32PmHQQU8/M1JDnC6PYLI/8D/iYKUvXs/9vi47PtK9LqIIYt/SAT11UMEA4h3uP+BtGp/A0lwxZA2Nj6DKEbyAL2Ez3wGRHlTdTzMs4r7QYD+iMcMxP3/7nZ/DEGAfz+Av7nPx4GJREqNbgWARdP+AvRKQDdKRkpSxe109MInykjSO29+t8yGX35gCESxRwePyUvHiE/JNYH7DYlfzbHhO0Pign4LNgS6TDf/Q7wvOnrV/kJ+AUe9Siq7NQT/b/zJvk6G+FYwAUC5vANHfnwBghrAg36t/4nOtm8J9/zBkXLA/YjDNACvhAoqDACKSHi3gj9FK3DRyoF4R7O4SEJs60Z3JATENRAQBMbE0CA8xdIFOFT/gkgFlM76v/lJOC54y34KBQ97x1B7iIc8d3ZCgPd3eTr/zK9PQzROAAOAQIA","URL":"https://172.26.96.38:6121/pic?did=01001480869755F376793FBFA4536BE61EFEA2B0EF7460000003906000000001&bid=3906&pid=872755392&ptime=1617724445&plen=10041","faceScore":{"featureConfidence":-79196832,"pupillaryDistance":24.364632,"pitchAngle":-40.007809,"yawAngle":-13.996676,"faceRect":0,"colorConfidence":1,"grayScale":82,"grayMean":57.817165,"grayVariance":28.279701,"clearityScore":0.150000,"rollAngle":5.572274,"poseConfidence":0,"frontalScore":0,"visibleScore":0.500000,"totalScore":0.162299}}],"image":"http://172.27.199.225:6113/pic?=d7ei0c9i614c*518-761i0m*ep0t5d8=*2pdi=*1s7i5361i9d7=*bb3530c74-1504f=4-196937-76s9c71z9173d="}]}
{"ipAddress":"172.26.96.37","protocol":"HTTP","macAddress":"","channelID":1,"activePostCount":1,"eventType":"captureResult","eventState":"active","eventDescription":"captureLibResult","uuid":"08792D15-3E6C-334F-A2A0-3E6B15ECF6BA","dateTime":"2021-04-06T15:54:04+08:00","captureLibResult":[{"errorCode":1,"errorMsg":"ok","traceIdx":1,"traceUuid":"08792D15-3E6C-334F-A2A0-3E6B15ECF6BA","targetAttrs":{"cameraIndexCode":"00520020001310000692","deviceName":"POL2_120449CLE_P11A_channel_2","linkFaceBodyId":"","faceTime":"2021-04-06T15:54:04+08:00","rect":"{\"x\":0.566000,\"y\":0,\"width\":0.114000,\"height\":0.196000}","bkgUrl":"http://172.27.199.225:6113/pic?=d13i0c4e*14ci668-751e0=t1i0m*dp=*8pdi=*1s7i6341i9d7=*bb3530c74-1504f64-197637-91z9c7s=0193d1"},"faces":[{"faceId":0,"faceRect":{"x":0.528846,"y":0.360577,"width":0.365385,"height":0.360577},"facePose":{"pitch":-10.014200,"roll":-2.023100,"yaw":-18.999001},"smile":{"confidence":96,"value":"no"},"age":{"range":5,"value":45,"ageGroup":"middle"},"gender":{"confidence":96,"value":"male"},"glass":{"confidence":96,"value":"no"},"modelData":"SElLREZSNDMwVFgAAAAAALQh4QIA8KjR9QIMGhH/ux7dHB0lJdob/wgkxMAREP0SOO3b/9T66zQzIaX07v0P/e1Ewy00DiD43fyv/t0jHePSq+sQzztO1F/P+vrX3CtFaw3Ru8kQ/+fi854J4Fu84AwV5Adu3BUswOaiGcG9Jv7kNwAAyLsWEAEJFAlO2NLuvgnkAxJA/vlGNVHZFF+RFNjv7OpvSPn+9v3aGMUWAAUZ6gnv3w/kDPnMPOXf/BYbM+Tb7+U57FDJ4CV/DT7qSxUazMRDqAJZFBLzPNEKwDnQxe8dAPTD7crxJOXj/BEn68b2AP087hEYwD0YiijY2apKEsLZ8+M78pX2E+nmM98wCs2u8w3r3vfZIYDkMfIyCRgH6jcmBtoBCx0F9xvjAMBi9f76zBH1UrsNahgK77fg5R7e7BAJBR7UAAYxMf/hJxAQ0xUbJmnsEQAV1gOB+rTr/gz4r8V7KOlc7loXLDbwEH8V4rnjo9oSKZ/9wZn4xOHv/d4mHAI7FPkztyIJFB0KI0HFnOT2+y0yF/EM8xo3BBPlCRHq8gL+3fUNnNLO7A1FDfs+Mf8D+PIh+xAk2y9VR8rCxxS/VQcQTu3czvtB+iXsNbXqu91WHBcF4eZY/RgXtiLz+C0gACZuPjMoy/efPL3x+DUk0cwQ7dEDHe37CsAM/ScV4BLxFPQVAEo2OADJNgYA","URL":"https://172.26.96.38:6121/pic?did=01001480869755F376793FBFA4536BE61EFEA2B0EF7460000003906000000001&bid=3906&pid=873005248&ptime=1617724448&plen=13459","faceScore":{"featureConfidence":-92041888,"pupillaryDistance":32.095749,"pitchAngle":-10.014216,"yawAngle":-18.998970,"faceRect":0,"colorConfidence":1,"grayScale":65,"grayMean":51.808880,"grayVariance":22.844839,"clearityScore":0.200000,"rollAngle":-2.023098,"poseConfidence":0,"frontalScore":0,"visibleScore":0.500000,"totalScore":0.209441}}],"image":"http://172.27.199.225:6113/pic?3ddd51if4-e*5e116610351b--cc74551b47909i4b3*=4d6*15d1i*s1d=i8p9t=pe*m6i8-=7606a91z026s=9ie3="}]}
{"ipAddress":"172.26.96.37","protocol":"HTTP","macAddress":"","channelID":1,"activePostCount":1,"eventType":"captureResult","eventState":"active","eventDescription":"captureLibResult","uuid":"B19D4377-880E-2149-8447-13EC05E97D43","dateTime":"2021-04-06T15:54:04+08:00","captureLibResult":[{"errorCode":1,"errorMsg":"ok","traceIdx":1,"traceUuid":"B19D4377-880E-2149-8447-13EC05E97D43","targetAttrs":{"cameraIndexCode":"00520020001310000692","deviceName":"POL2_120449CLE_P11A_channel_2","linkFaceBodyId":"","faceTime":"2021-04-06T15:54:04+08:00","rect":"{\"x\":0.533000,\"y\":0.162000,\"width\":0.112000,\"height\":0.196000}","bkgUrl":"http://172.27.199.225:6113/pic?=d23i0c5e*14ci668-751e0=t1i4m*dp=*8pdi=*1s7i6341i9d7=*bb3530c74-1504f64-197637-91z9c7s=3173d1"},"faces":[{"faceId":0,"faceRect":{"x":0.355769,"y":0.394231,"width":0.365385,"height":0.355769},"facePose":{"pitch":-35.001499,"roll":10.261600,"yaw":-29.999500},"smile":{"confidence":96,"value":"no"},"age":{"range":5,"value":54,"ageGroup":"middle"},"gender":{"confidence":96,"value":"male"},"glass":{"confidence":96,"value":"yes"},"modelData":"SElLREZSNDMwVFgAAAAAAPD692rn1xHTIcnt2swa9Rr//vPcUSi8/T0C/P/SKKPLA/LC4tHqJTLqLQL2NhQ+JR0D9/lnDxKzHs4r3P3BMucANPwl6iby3QeXSteYCAjwBfkfzrwH9Ko6IR5VDivSyszn3hoW2ykGHSINNu8r3iwJAwD1DeoZBwZQUsHRKhMJmB38BQkGFAzgDO8xHrkWMcPhGAG0rtchCSUJ0urcAAtB77TW8gW+Cyu3nBoDfgE+//WAATm491s2Gk0HPzJUHBIA9Bcn0l3tQRs71ww3D0jF6O7rEfj+Fiv5MSfn1u4L47LPO7bCB5V8+hspkzol8AoW0tDf9//Y8wol2NU74uYJ08oR5QvoIycG/hTfS+cYE6L2HwYt4PAFUs404u/hHzD11BTR/OIVPw02YeQiJfj1GvToDTG7BwD7LDIHW0zC7cDqo/fvMwXg9Mr9CGMMnhELBgkELg4dLBs5Gvby3RU6fwO9mgnngA82LtsEw+/PFAQIoAzNd+shFT/vCjOv9/pQFd7aFAYVIMw0Cz8z1/oTCOUVGyg8B+Ar3PPSEtLIGeEBDVLP9Nr6K9MIwyIx0zITVV/myxy9MwaYPwXq+CPj8EX+69vvGK8XJMf5ZAEYJVunCSZMIdtpAykJAjYctDnkGNvn1BkE5xk64x4w9h/x+9XjK8Ue9cbgI0CTO+u7OAAOAQIA","URL":"https://172.26.96.38:6121/pic?did=01001480869755F376793FBFA4536BE61EFEA2B0EF7460000003906000000001&bid=3906&pid=873334464&ptime=1617724448&plen=11543","faceScore":{"featureConfidence":-92041888,"pupillaryDistance":17.073309,"pitchAngle":-35.001541,"yawAngle":-29.999542,"faceRect":0,"colorConfidence":1,"grayScale":106,"grayMean":71.417816,"grayVariance":36.557384,"clearityScore":0.300000,"rollAngle":10.261583,"poseConfidence":0,"frontalScore":0,"visibleScore":0.500000,"totalScore":0.185627}}],"image":"http://172.27.199.225:6113/pic?4dd791i31-e*5c9166173019--4cf4551b47703i3b3*=7d9*16d5i*s1d=i0p2*=1i6t=pe0m697-876sc411z1c0i=7="}]}
{"ipAddress":"172.26.96.37","protocol":"HTTP","macAddress":"","channelID":1,"activePostCount":1,"eventType":"captureResult","eventState":"active","eventDescription":"captureLibResult","uuid":"BF6FADDA-8FEF-5E48-8F3A-C9E8F83C2A8E","dateTime":"2021-04-06T15:54:06+08:00","captureLibResult":[{"errorCode":1,"errorMsg":"ok","traceIdx":1,"traceUuid":"BF6FADDA-8FEF-5E48-8F3A-C9E8F83C2A8E","targetAttrs":{"cameraIndexCode":"00520020001310000692","deviceName":"POL2_120449CLE_P11A_channel_2","linkFaceBodyId":"","faceTime":"2021-04-06T15:54:06+08:00","rect":"{\"x\":0.766000,\"y\":0.207000,\"width\":0.162000,\"height\":0.281000}","bkgUrl":"http://172.27.199.225:6113/pic?=d82i0c2e*14ci668-751e0=t1i6m*dp=*8pdi=*1s7i6341i9d7=*bb3530c74-1504f64-197637-91z9c7s=2143d8"},"faces":[{"faceId":0,"faceRect":{"x":0.447368,"y":0.384868,"width":0.332237,"height":0.325658},"facePose":{"pitch":-39.986000,"roll":5.456180,"yaw":19.002199},"smile":{"confidence":96,"value":"no"},"age":{"range":5,"value":34,"ageGroup":"young"},"gender":{"confidence":96,"value":"male"},"glass":{"confidence":96,"value":"sunglasses"},"modelData":"SElLREZSNDMwVFgAAAAAALvm0UILBA0EJN8x7Oz01wwb3OTSR8H4Pgvw/+glHA8eu+0h0U3gQ0cqSPvw81Q88AvYFfbhVtsz3r4P+cwJvLDdJr3W+0Ml0C0MHLEJ5Do4ttvWKBwxvvTzyhPACCD4KBXpCH/1ys7jLyu5JDsW6AbfIADr6xcXywgdDhIsG8rA8h8EQ94M5EftEthA4Bwo+AYamiFAFecUKjQisLceAB0ACgPW99KLCAHT0u/CJKUDEfn6wjoK0AbxIzA3xKPzeTcQqWMd9cblBErMDZPc0c4bH9/nYf7s/sUqBEUC5xfzriTvDM8swuEVCNLjOBPi/qEDuOne8Q7CWvpmCNbj49MxJswWGi4G7NoeJBsLAa7w+gv/Aiw2SZsaNAT86vUBQMAa+AQlBQ8aIgUT7cj2SufhQS7YWeQWBgIcMjlcHrVFwCXIGi7iHxHTzzbh8ODjBikT5NokPwFGZur8ASNNxwnt7BkXCL7yEMRD3PLk0dy+7gP/HoDhNCb49OS8587Y+/k47gf52e0YDxrA7gbSJLBeQ43FWCVIGuT2w/Xb1uf3FJ4YQfcqHgXL9dbF/t3ak9/GCOHfGO7iV7DLDuYE9RvAJgQP9vLD9jX78SIx0PnlDCF//OHi8LAwszEpCAfuC9xAD7kn1hEgzerlNBgO6cXtx3YEsTT0OczpHOlBwkILOABpcAYA","URL":"https://172.26.96.38:6121/pic?did=01001480869755F376793FBFA4536BE61EFEA2B0EF7460000003906000000001&bid=3906&pid=873662656&ptime=1617724449&plen=21911","faceScore":{"featureConfidence":-75264672,"pupillaryDistance":40.252197,"pitchAngle":-39.985989,"yawAngle":19.002157,"faceRect":0,"colorConfidence":1,"grayScale":169,"grayMean":133.163788,"grayVariance":61.847515,"clearityScore":0.150000,"rollAngle":5.456179,"poseConfidence":0,"frontalScore":0,"visibleScore":0.100000,"totalScore":0.185989}}],"image":"http://172.27.199.225:6113/pic?=d4=i621z1ea6s670-896m0ep=t0i2d*=*1pdi=*1s4i1351i6d9=*bb4590c74-155471c-1b1530-66i1ed*e847fd2"}]}
{"ipAddress":"172.26.96.37","protocol":"HTTP","macAddress":"","channelID":1,"activePostCount":1,"eventType":"captureResult","eventState":"active","eventDescription":"captureLibResult","uuid":"5AF59A21-A20E-1A4A-8B8B-767BCCD5D1B4","dateTime":"2021-04-06T15:54:06+08:00","captureLibResult":[{"errorCode":1,"errorMsg":"ok","traceIdx":1,"traceUuid":"5AF59A21-A20E-1A4A-8B8B-767BCCD5D1B4","targetAttrs":{"cameraIndexCode":"00520020001310000692","deviceName":"POL2_120449CLE_P11A_channel_2","linkFaceBodyId":"","faceTime":"2021-04-06T15:54:06+08:00","rect":"{\"x\":0.566000,\"y\":0,\"width\":0.127000,\"height\":0.188000}","bkgUrl":"http://172.27.199.225:6113/pic?=d63i0c1e*14ci668-751e0=t1i8m*dp=*8pdi=*1s7i6341i9d7=*bb3530c74-1504f64-197637-92z9c7s=4123d0"},"faces":[{"faceId":0,"faceRect":{"x":0.337500,"y":0.244792,"width":0.333333,"height":0.411458},"facePose":{"pitch":-14.988500,"roll":19.368799,"yaw":-11.997600},"smile":{"confidence":96,"value":"yes"},"age":{"range":5,"value":33,"ageGroup":"young"},"gender":{"confidence":96,"value":"female"},"glass":{"confidence":96,"value":"no"},"modelData":"SElLREZSNDMwVFgAAAAAABw+RNHzGfemTAodv/w83hT/0MnjsOLNJBEQStgG9E8DMsMnGzy2FyxiLPA65O09/uUzFTDbzgnXBdz4yCu8Cwbd9O0XFdDd69ki+rgQIOwb4iKtsvra4xy86zlQ5PX7Gc00KzK0ESO71eD2SvKGGT0H5QDTqCobCDfz3Pi9nfnlCUElHOWPJRwV4gLvfhVO1zMw2R+hNhBbLQDu85xCABde4RSh7erxzRorLCPhEf8uNr0A5/wQFtG87OJeofQYDt7aBRjnGgPw4RrQ4NzJGVPpz9ES8uAN4bMgB9POwQU6CScsFAUGyQZMFvr1TvgtDdisRPvhJTf0Pw4N3uPPGxkKQbUMIM2o9ge2Kw36MJ+b89PFCyP5CfwFHOcT6gsF0AdS/hL2nOEjHO4JZSYUWPHYBBj0//IHPxVfB9kiIBSl+yfeLwACDUjFQ+QF+k22FjUYAPj36k/FLuEN+RsXCuUuIhA2za7g+fsEGPIDCabs2REUf+bmABDDDjcS7N88wjBt4q0HPe7e+zgmxvLfFEHqKeRRSiBCLc/lvifvyvjgWN4K/xEC8CvwQBsyDdh0/eTX29olGCzQY8i4SBEjUEkf7tYrCBgHPRZQ/DMPFAP03QS78vwx97sdJd0PIxLj0gYyHqkBuBodFdKw3sxZxzLPjvUrNS8JKr0W3ujr8gntOADmoQUA","URL":"https://172.26.96.38:6121/pic?did=01001480869755F376793FBFA4536BE61EFEA2B0EF7460000003906000000001&bid=3906&pid=873968320&ptime=1617724449&plen=13506","faceScore":{"featureConfidence":-92041888,"pupillaryDistance":13.795209,"pitchAngle":-14.988461,"yawAngle":-11.997584,"faceRect":0,"colorConfidence":1,"grayScale":136,"grayMean":150.347824,"grayVariance":39.888458,"clearityScore":0.400000,"rollAngle":19.368755,"poseConfidence":0,"frontalScore":0,"visibleScore":0.500000,"totalScore":0.346066}}],"image":"http://172.27.199.225:6113/pic?4dd721i31-e*5c9166173019--4cf4551b47703i3b3*=7d9*16d5i*s1d=i0p2*=4i6t=pe0m697-876sc411z3c0i=4="}]}
{"ipAddress":"172.26.96.37","protocol":"HTTP","macAddress":"","channelID":1,"activePostCount":1,"eventType":"captureResult","eventState":"active","eventDescription":"captureLibResult","uuid":"F7888C5E-9418-7243-AFB5-5756B03ACBB1","dateTime":"2021-04-06T15:54:09+08:00","captureLibResult":[{"errorCode":1,"errorMsg":"ok","traceIdx":1,"traceUuid":"F7888C5E-9418-7243-AFB5-5756B03ACBB1","targetAttrs":{"cameraIndexCode":"00520020001310000692","deviceName":"POL2_120449CLE_P11A_channel_2","linkFaceBodyId":"","faceTime":"2021-04-06T15:54:09+08:00","rect":"{\"x\":0.725000,\"y\":0.059000,\"width\":0.152000,\"height\":0.270000}","bkgUrl":"http://172.27.199.225:6113/pic?=d92i0c6e*14ci668-751e0=t1i0m*dp=*9pdi=*1s7i6341i9d7=*bb3530c74-1504f64-197637-92z9c7s=0143d9"},"faces":[{"faceId":0,"faceRect":{"x":0.406250,"y":0.423611,"width":0.347222,"height":0.343750},"facePose":{"pitch":-19.998800,"roll":43.868599,"yaw":-16.001600},"smile":{"confidence":96,"value":"no"},"age":{"range":5,"value":28,"ageGroup":"young"},"gender":{"confidence":96,"value":"female"},"glass":{"confidence":96,"value":"no"},"modelData":"SElLREZSNDMwVFgAAAAAAPov8iwW5A3n9f1Cz777Avsw6wz21gcMMRUvWv0t9DfcKb8S3ibBFQE3SPtdpvQx5R0tAzMA9xJK+sb49RfA++fE39D26tDo4uxGEQ7J9a/o0v3d+foFCw3ZIfo8CtfqyPTeAW3v3CkV1erSXdWr7SgJDgACzy0f9RHi3viC00DYFH8MC8L+/uUW1Ar/LTxT/NwO/yO1GAdENO8q9oA1ADxZveG2JwH76CbxRPLVJDX6ItXG5AUFNMyyHhQnqC7T0s/jWhHl+AD5Gkoqy9bfAjX58E1XOMAO6LgYIazKtSUjBTIRNyfs4AcHDsouBvAqHAv/ZNPvAzAGVczqn/OKWBv4tu0OI+bFHxGpGP322L+q7t/g4ibXFQhg6JoH6vwH1jcJyfoLgJwPH+xDSjI5NCTF2kIZ4+cODxcWHvIH9R6YNNEVJgECzXgAFBrqKT48NuzUCtIDBFXmDfvu9yg3+vwXTvDOv8b9ACI9Sigd5qPG6QQWZuK9JQgsNUkII9oi6/FQHL0VIgvbEiRG+dgvOxMS2vw+QQoe6ewUlBrXAcHhSh4NLBnwBM4+Ofn0At0aFeLu+7QDL+riXFi9UQfsKn8a3B319tw0QRRg6EzhGt21yvjH6UEv8OwPLe8N/8gFxhIT4vkfzC1O8tfk7u0X9TTN6h78GyIiNTkD5qo4Ed/6OACnNQUA","URL":"https://172.26.96.38:6121/pic?did=01001480869755F376793FBFA4536BE61EFEA2B0EF7460000003906000000001&bid=3906&pid=874953920&ptime=1617724452&plen=26188","faceScore":{"featureConfidence":-92041888,"pupillaryDistance":8.892961,"pitchAngle":-19.998779,"yawAngle":-16.001633,"faceRect":0,"colorConfidence":1,"grayScale":163,"grayMean":157.337631,"grayVariance":52.598660,"clearityScore":0.550000,"rollAngle":43.868610,"poseConfidence":0,"frontalScore":0,"visibleScore":0.400000,"totalScore":0.371468}}],"image":"http://172.27.199.225:6113/pic?=d2=i626z2ea6s670-896m0ep=t0i6d*=*1pdi=*1s4i1351i6d9=*bb4590c74-155471c-1b1530-66i1ed*e144fd2"}]}
